<?xml version="1.0" encoding="utf-8" standalone="no"?>
<AQXSite>
	<Data>
		<SiteName>基隆</SiteName>
		<SiteEngName>Keelung</SiteEngName>
		<AreaName>北部空品區</AreaName>
		<County>基隆市</County>
		<Township>信義區</Township>
		<SiteAddress>基隆市東信路324號</SiteAddress>
		<TWD97Lon>121.7600560000</TWD97Lon>
		<TWD97Lat>25.1291670000</TWD97Lat>
		<SiteType>一般站</SiteType>
		<SiteId>1</SiteId>
	</Data>
	<Data>
		<SiteName>汐止</SiteName>
		<SiteEngName>Xizhi</SiteEngName>
		<AreaName>北部空品區</AreaName>
		<County>新北市</County>
		<Township>汐止區</Township>
		<SiteAddress>新北市汐止區樟樹一路141巷2號</SiteAddress>
		<TWD97Lon>121.6423000000</TWD97Lon>
		<TWD97Lat>25.0671310000</TWD97Lat>
		<SiteType>一般站</SiteType>
		<SiteId>2</SiteId>
	</Data>
	<Data>
		<SiteName>萬里</SiteName>
		<SiteEngName>Wanli</SiteEngName>
		<AreaName>北部空品區</AreaName>
		<County>新北市</County>
		<Township>萬里區</Township>
		<SiteAddress>新北市萬里區瑪鋉路221號</SiteAddress>
		<TWD97Lon>121.6898810000</TWD97Lon>
		<TWD97Lat>25.1796670000</TWD97Lat>
		<SiteType>一般站</SiteType>
		<SiteId>3</SiteId>
	</Data>
	<Data>
		<SiteName>新店</SiteName>
		<SiteEngName>Xindian</SiteEngName>
		<AreaName>北部空品區</AreaName>
		<County>新北市</County>
		<Township>新店區</Township>
		<SiteAddress>新北市新店區民族路108號</SiteAddress>
		<TWD97Lon>121.5377780000</TWD97Lon>
		<TWD97Lat>24.9772220000</TWD97Lat>
		<SiteType>一般站</SiteType>
		<SiteId>4</SiteId>
	</Data>
	<Data>
		<SiteName>土城</SiteName>
		<SiteEngName>Tucheng</SiteEngName>
		<AreaName>北部空品區</AreaName>
		<County>新北市</County>
		<Township>土城區</Township>
		<SiteAddress>新北市土城區學府路一段241號</SiteAddress>
		<TWD97Lon>121.4518610000</TWD97Lon>
		<TWD97Lat>24.9825280000</TWD97Lat>
		<SiteType>一般站</SiteType>
		<SiteId>5</SiteId>
	</Data>
	<Data>
		<SiteName>板橋</SiteName>
		<SiteEngName>Banqiao</SiteEngName>
		<AreaName>北部空品區</AreaName>
		<County>新北市</County>
		<Township>板橋區</Township>
		<SiteAddress>新北市板橋區文化路一段25號</SiteAddress>
		<TWD97Lon>121.4586670000</TWD97Lon>
		<TWD97Lat>25.0129720000</TWD97Lat>
		<SiteType>一般站</SiteType>
		<SiteId>6</SiteId>
	</Data>
	<Data>
		<SiteName>新莊</SiteName>
		<SiteEngName>Xinzhuang</SiteEngName>
		<AreaName>北部空品區</AreaName>
		<County>新北市</County>
		<Township>新莊區</Township>
		<SiteAddress>新北市新莊區中正路510號</SiteAddress>
		<TWD97Lon>121.4325000000</TWD97Lon>
		<TWD97Lat>25.0379720000</TWD97Lat>
		<SiteType>一般站</SiteType>
		<SiteId>7</SiteId>
	</Data>
	<Data>
		<SiteName>菜寮</SiteName>
		<SiteEngName>Cailiao</SiteEngName>
		<AreaName>北部空品區</AreaName>
		<County>新北市</County>
		<Township>三重區</Township>
		<SiteAddress>新北市三重區中正北路163號</SiteAddress>
		<TWD97Lon>121.4810280000</TWD97Lon>
		<TWD97Lat>25.0689500000</TWD97Lat>
		<SiteType>一般站</SiteType>
		<SiteId>8</SiteId>
	</Data>
	<Data>
		<SiteName>林口</SiteName>
		<SiteEngName>Linkou</SiteEngName>
		<AreaName>北部空品區</AreaName>
		<County>新北市</County>
		<Township>林口區</Township>
		<SiteAddress>新北市林口區文化路一段425號</SiteAddress>
		<TWD97Lon>121.3768690000</TWD97Lon>
		<TWD97Lat>25.0771970000</TWD97Lat>
		<SiteType>一般站</SiteType>
		<SiteId>9</SiteId>
	</Data>
	<Data>
		<SiteName>淡水</SiteName>
		<SiteEngName>Tamsui</SiteEngName>
		<AreaName>北部空品區</AreaName>
		<County>新北市</County>
		<Township>淡水區</Township>
		<SiteAddress>新北市淡水區中正東路42巷6號</SiteAddress>
		<TWD97Lon>121.4492390000</TWD97Lon>
		<TWD97Lat>25.1645000000</TWD97Lat>
		<SiteType>一般站</SiteType>
		<SiteId>10</SiteId>
	</Data>
	<Data>
		<SiteName>士林</SiteName>
		<SiteEngName>Shilin</SiteEngName>
		<AreaName>北部空品區</AreaName>
		<County>臺北市</County>
		<Township>北投區</Township>
		<SiteAddress>臺北市北投區文林北路155號</SiteAddress>
		<TWD97Lon>121.5153890000</TWD97Lon>
		<TWD97Lat>25.1054170000</TWD97Lat>
		<SiteType>一般站</SiteType>
		<SiteId>11</SiteId>
	</Data>
	<Data>
		<SiteName>中山</SiteName>
		<SiteEngName>Zhongshan</SiteEngName>
		<AreaName>北部空品區</AreaName>
		<County>臺北市</County>
		<Township>中山區</Township>
		<SiteAddress>臺北市中山區林森北路511號</SiteAddress>
		<TWD97Lon>121.5265280000</TWD97Lon>
		<TWD97Lat>25.0623610000</TWD97Lat>
		<SiteType>一般站</SiteType>
		<SiteId>12</SiteId>
	</Data>
	<Data>
		<SiteName>萬華</SiteName>
		<SiteEngName>Wanhua</SiteEngName>
		<AreaName>北部空品區</AreaName>
		<County>臺北市</County>
		<Township>萬華區</Township>
		<SiteAddress>臺北市萬華區中華路1段66號</SiteAddress>
		<TWD97Lon>121.5079720000</TWD97Lon>
		<TWD97Lat>25.0465030000</TWD97Lat>
		<SiteType>一般站</SiteType>
		<SiteId>13</SiteId>
	</Data>
	<Data>
		<SiteName>古亭</SiteName>
		<SiteEngName>Guting</SiteEngName>
		<AreaName>北部空品區</AreaName>
		<County>臺北市</County>
		<Township>大安區</Township>
		<SiteAddress>臺北市大安區羅斯福路三段153號</SiteAddress>
		<TWD97Lon>121.5295560000</TWD97Lon>
		<TWD97Lat>25.0206080000</TWD97Lat>
		<SiteType>一般站</SiteType>
		<SiteId>14</SiteId>
	</Data>
	<Data>
		<SiteName>松山</SiteName>
		<SiteEngName>Songshan</SiteEngName>
		<AreaName>北部空品區</AreaName>
		<County>臺北市</County>
		<Township>松山區</Township>
		<SiteAddress>臺北市松山區八德路四段746號</SiteAddress>
		<TWD97Lon>121.5786110000</TWD97Lon>
		<TWD97Lat>25.0500000000</TWD97Lat>
		<SiteType>一般站</SiteType>
		<SiteId>15</SiteId>
	</Data>
	<Data>
		<SiteName>大同</SiteName>
		<SiteEngName>Datong</SiteEngName>
		<AreaName>北部空品區</AreaName>
		<County>臺北市</County>
		<Township>大同區</Township>
		<SiteAddress>臺北市大同區重慶北路三段2號</SiteAddress>
		<TWD97Lon>121.5133110000</TWD97Lon>
		<TWD97Lat>25.0632000000</TWD97Lat>
		<SiteType>交通站</SiteType>
		<SiteId>16</SiteId>
	</Data>
	<Data>
		<SiteName>桃園</SiteName>
		<SiteEngName>Taoyuan</SiteEngName>
		<AreaName>北部空品區</AreaName>
		<County>桃園市</County>
		<Township>桃園區</Township>
		<SiteAddress>桃園市桃園區莒光街15號</SiteAddress>
		<TWD97Lon>121.3087222200</TWD97Lon>
		<TWD97Lat>24.9867777800</TWD97Lat>
		<SiteType>一般站</SiteType>
		<SiteId>17</SiteId>
	</Data>
	<Data>
		<SiteName>大園</SiteName>
		<SiteEngName>Dayuan</SiteEngName>
		<AreaName>北部空品區</AreaName>
		<County>桃園市</County>
		<Township>大園區</Township>
		<SiteAddress>桃園市大園區中正東路160號</SiteAddress>
		<TWD97Lon>121.2018110000</TWD97Lon>
		<TWD97Lat>25.0603440000</TWD97Lat>
		<SiteType>一般站</SiteType>
		<SiteId>18</SiteId>
	</Data>
	<Data>
		<SiteName>觀音</SiteName>
		<SiteEngName>Guanyin</SiteEngName>
		<AreaName>北部空品區</AreaName>
		<County>桃園市</County>
		<Township>觀音區</Township>
		<SiteAddress>桃園市觀音區文化路2號</SiteAddress>
		<TWD97Lon>121.0827610000</TWD97Lon>
		<TWD97Lat>25.0355030000</TWD97Lat>
		<SiteType>背景站</SiteType>
		<SiteId>19</SiteId>
	</Data>
	<Data>
		<SiteName>平鎮</SiteName>
		<SiteEngName>Pingzhen</SiteEngName>
		<AreaName>北部空品區</AreaName>
		<County>桃園市</County>
		<Township>平鎮區</Township>
		<SiteAddress>平鎮區復興復旦里集會所</SiteAddress>
		<TWD97Lon>121.2039860000</TWD97Lon>
		<TWD97Lat>24.9527860000</TWD97Lat>
		<SiteType>一般站</SiteType>
		<SiteId>20</SiteId>
	</Data>
	<Data>
		<SiteName>龍潭</SiteName>
		<SiteEngName>Longtan</SiteEngName>
		<AreaName>北部空品區</AreaName>
		<County>桃園市</County>
		<Township>龍潭區</Township>
		<SiteAddress>桃園市龍潭區中正路210號</SiteAddress>
		<TWD97Lon>121.2163500000</TWD97Lon>
		<TWD97Lat>24.8638690000</TWD97Lat>
		<SiteType>一般站</SiteType>
		<SiteId>21</SiteId>
	</Data>
	<Data>
		<SiteName>湖口</SiteName>
		<SiteEngName>Hukou</SiteEngName>
		<AreaName>竹苗空品區</AreaName>
		<County>新竹縣</County>
		<Township>湖口鄉</Township>
		<SiteAddress>新竹縣湖口鄉成功路360號</SiteAddress>
		<TWD97Lon>121.0386530000</TWD97Lon>
		<TWD97Lat>24.9001420000</TWD97Lat>
		<SiteType>一般站</SiteType>
		<SiteId>22</SiteId>
	</Data>
	<Data>
		<SiteName>竹東</SiteName>
		<SiteEngName>Zhudong</SiteEngName>
		<AreaName>竹苗空品區</AreaName>
		<County>新竹縣</County>
		<Township>竹東鎮</Township>
		<SiteAddress>新竹縣竹東鎮榮樂里三民街70號</SiteAddress>
		<TWD97Lon>121.0889030000</TWD97Lon>
		<TWD97Lat>24.7406440000</TWD97Lat>
		<SiteType>一般站</SiteType>
		<SiteId>23</SiteId>
	</Data>
	<Data>
		<SiteName>新竹</SiteName>
		<SiteEngName>Hsinchu</SiteEngName>
		<AreaName>竹苗空品區</AreaName>
		<County>新竹市</County>
		<Township>東區</Township>
		<SiteAddress>新竹市民族路33號</SiteAddress>
		<TWD97Lon>120.9720750000</TWD97Lon>
		<TWD97Lat>24.8056190000</TWD97Lat>
		<SiteType>一般站</SiteType>
		<SiteId>24</SiteId>
	</Data>
	<Data>
		<SiteName>頭份</SiteName>
		<SiteEngName>Toufen</SiteEngName>
		<AreaName>竹苗空品區</AreaName>
		<County>苗栗縣</County>
		<Township>頭份鎮</Township>
		<SiteAddress>苗栗縣頭份鎮文化街20號</SiteAddress>
		<TWD97Lon>120.8985720000</TWD97Lon>
		<TWD97Lat>24.6969690000</TWD97Lat>
		<SiteType>工業站</SiteType>
		<SiteId>25</SiteId>
	</Data>
	<Data>
		<SiteName>苗栗</SiteName>
		<SiteEngName>Miaoli</SiteEngName>
		<AreaName>竹苗空品區</AreaName>
		<County>苗栗縣</County>
		<Township>苗栗市</Township>
		<SiteAddress>苗栗市縣府路100號</SiteAddress>
		<TWD97Lon>120.8202000000</TWD97Lon>
		<TWD97Lat>24.5652690000</TWD97Lat>
		<SiteType>一般站</SiteType>
		<SiteId>26</SiteId>
	</Data>
	<Data>
		<SiteName>三義</SiteName>
		<SiteEngName>Sanyi</SiteEngName>
		<AreaName>竹苗空品區</AreaName>
		<County>苗栗縣</County>
		<Township>三義鄉</Township>
		<SiteAddress>苗栗縣三義鄉西湖村上湖61-1號</SiteAddress>
		<TWD97Lon>120.7588330000</TWD97Lon>
		<TWD97Lat>24.3829420000</TWD97Lat>
		<SiteType>一般站</SiteType>
		<SiteId>27</SiteId>
	</Data>
	<Data>
		<SiteName>豐原</SiteName>
		<SiteEngName>Fengyuan</SiteEngName>
		<AreaName>中部空品區</AreaName>
		<County>臺中市</County>
		<Township>豐原區</Township>
		<SiteAddress>臺中市豐原區水源路150號</SiteAddress>
		<TWD97Lon>120.7417110000</TWD97Lon>
		<TWD97Lat>24.2565860000</TWD97Lat>
		<SiteType>一般站</SiteType>
		<SiteId>28</SiteId>
	</Data>
	<Data>
		<SiteName>沙鹿</SiteName>
		<SiteEngName>Shalu</SiteEngName>
		<AreaName>中部空品區</AreaName>
		<County>臺中市</County>
		<Township>沙鹿區</Township>
		<SiteAddress>臺中市沙鹿區英才路150號</SiteAddress>
		<TWD97Lon>120.5687940000</TWD97Lon>
		<TWD97Lat>24.2256280000</TWD97Lat>
		<SiteType>一般站</SiteType>
		<SiteId>29</SiteId>
	</Data>
	<Data>
		<SiteName>大里</SiteName>
		<SiteEngName>Dali</SiteEngName>
		<AreaName>中部空品區</AreaName>
		<County>臺中市</County>
		<Township>大里區</Township>
		<SiteAddress>臺中市大里區大新街36號</SiteAddress>
		<TWD97Lon>120.6784444400</TWD97Lon>
		<TWD97Lat>24.0996111100</TWD97Lat>
		<SiteType>一般站</SiteType>
		<SiteId>30</SiteId>
	</Data>
	<Data>
		<SiteName>忠明</SiteName>
		<SiteEngName>Zhongming</SiteEngName>
		<AreaName>中部空品區</AreaName>
		<County>臺中市</County>
		<Township>南屯區</Township>
		<SiteAddress>臺中市南屯區公益路二段296號</SiteAddress>
		<TWD97Lon>120.6410920000</TWD97Lon>
		<TWD97Lat>24.1519580000</TWD97Lat>
		<SiteType>一般站</SiteType>
		<SiteId>31</SiteId>
	</Data>
	<Data>
		<SiteName>西屯</SiteName>
		<SiteEngName>Xitun</SiteEngName>
		<AreaName>中部空品區</AreaName>
		<County>臺中市</County>
		<Township>西屯區</Township>
		<SiteAddress>臺中市西屯區安和路1號</SiteAddress>
		<TWD97Lon>120.6169170000</TWD97Lon>
		<TWD97Lat>24.1621970000</TWD97Lat>
		<SiteType>一般站</SiteType>
		<SiteId>32</SiteId>
	</Data>
	<Data>
		<SiteName>彰化</SiteName>
		<SiteEngName>Changhua</SiteEngName>
		<AreaName>中部空品區</AreaName>
		<County>彰化縣</County>
		<Township>彰化市</Township>
		<SiteAddress>彰化縣彰化市文心街55號</SiteAddress>
		<TWD97Lon>120.5415190000</TWD97Lon>
		<TWD97Lat>24.0660000000</TWD97Lat>
		<SiteType>一般站</SiteType>
		<SiteId>33</SiteId>
	</Data>
	<Data>
		<SiteName>線西</SiteName>
		<SiteEngName>Xianxi</SiteEngName>
		<AreaName>中部空品區</AreaName>
		<County>彰化縣</County>
		<Township>線西鄉</Township>
		<SiteAddress>彰化縣線西鄉寓埔村中央路二段145號</SiteAddress>
		<TWD97Lon>120.4690610000</TWD97Lon>
		<TWD97Lat>24.1316720000</TWD97Lat>
		<SiteType>工業站</SiteType>
		<SiteId>34</SiteId>
	</Data>
	<Data>
		<SiteName>二林</SiteName>
		<SiteEngName>Erlin</SiteEngName>
		<AreaName>中部空品區</AreaName>
		<County>彰化縣</County>
		<Township>二林鎮</Township>
		<SiteAddress>彰化縣二林鎮萬合里江山巷1號</SiteAddress>
		<TWD97Lon>120.4096530000</TWD97Lon>
		<TWD97Lat>23.9251750000</TWD97Lat>
		<SiteType>一般站</SiteType>
		<SiteId>35</SiteId>
	</Data>
	<Data>
		<SiteName>南投</SiteName>
		<SiteEngName>Nantou</SiteEngName>
		<AreaName>中部空品區</AreaName>
		<County>南投縣</County>
		<Township>南投市</Township>
		<SiteAddress>南投市南陽路269號</SiteAddress>
		<TWD97Lon>120.6853060000</TWD97Lon>
		<TWD97Lat>23.9130000000</TWD97Lat>
		<SiteType>一般站</SiteType>
		<SiteId>36</SiteId>
	</Data>
	<Data>
		<SiteName>斗六</SiteName>
		<SiteEngName>Douliu</SiteEngName>
		<AreaName>雲嘉南空品區</AreaName>
		<County>雲林縣</County>
		<Township>斗六市</Township>
		<SiteAddress>雲林縣斗六市民生路224號</SiteAddress>
		<TWD97Lon>120.5449940000</TWD97Lon>
		<TWD97Lat>23.7118530000</TWD97Lat>
		<SiteType>一般站</SiteType>
		<SiteId>37</SiteId>
	</Data>
	<Data>
		<SiteName>崙背</SiteName>
		<SiteEngName>Lunbei</SiteEngName>
		<AreaName>雲嘉南空品區</AreaName>
		<County>雲林縣</County>
		<Township>崙背鄉</Township>
		<SiteAddress>雲林縣崙背鄉南陽村大成路91號</SiteAddress>
		<TWD97Lon>120.3487420000</TWD97Lon>
		<TWD97Lat>23.7575470000</TWD97Lat>
		<SiteType>一般站</SiteType>
		<SiteId>38</SiteId>
	</Data>
	<Data>
		<SiteName>新港</SiteName>
		<SiteEngName>Xingang</SiteEngName>
		<AreaName>雲嘉南空品區</AreaName>
		<County>嘉義縣</County>
		<Township>新港鄉</Township>
		<SiteAddress>嘉義縣新港鄉登雲路105號</SiteAddress>
		<TWD97Lon>120.3455310000</TWD97Lon>
		<TWD97Lat>23.5548390000</TWD97Lat>
		<SiteType>一般站</SiteType>
		<SiteId>39</SiteId>
	</Data>
	<Data>
		<SiteName>朴子</SiteName>
		<SiteEngName>Puzi</SiteEngName>
		<AreaName>雲嘉南空品區</AreaName>
		<County>嘉義縣</County>
		<Township>朴子市</Township>
		<SiteAddress>嘉義縣朴子市山通路11號</SiteAddress>
		<TWD97Lon>120.2478111100</TWD97Lon>
		<TWD97Lat>23.4671222200</TWD97Lat>
		<SiteType>一般站</SiteType>
		<SiteId>40</SiteId>
	</Data>
	<Data>
		<SiteName>臺西</SiteName>
		<SiteEngName>Taixi</SiteEngName>
		<AreaName>雲嘉南空品區</AreaName>
		<County>雲林縣</County>
		<Township>臺西鄉</Township>
		<SiteAddress>雲林縣台西鄉台西村民權路9號</SiteAddress>
		<TWD97Lon>120.1993333300</TWD97Lon>
		<TWD97Lat>23.7021750000</TWD97Lat>
		<SiteType>工業站</SiteType>
		<SiteId>41</SiteId>
	</Data>
	<Data>
		<SiteName>嘉義</SiteName>
		<SiteEngName>Chiayi</SiteEngName>
		<AreaName>雲嘉南空品區</AreaName>
		<County>嘉義市</County>
		<Township>西區</Township>
		<SiteAddress>嘉義市西區新民路580號</SiteAddress>
		<TWD97Lon>120.4408333300</TWD97Lon>
		<TWD97Lat>23.4627780000</TWD97Lat>
		<SiteType>一般站</SiteType>
		<SiteId>42</SiteId>
	</Data>
	<Data>
		<SiteName>新營</SiteName>
		<SiteEngName>Xinying</SiteEngName>
		<AreaName>雲嘉南空品區</AreaName>
		<County>臺南市</County>
		<Township>新營區</Township>
		<SiteAddress>臺南市新營區中正路4號</SiteAddress>
		<TWD97Lon>120.3172500000</TWD97Lon>
		<TWD97Lat>23.3056330000</TWD97Lat>
		<SiteType>一般站</SiteType>
		<SiteId>43</SiteId>
	</Data>
	<Data>
		<SiteName>善化</SiteName>
		<SiteEngName>Shanhua</SiteEngName>
		<AreaName>雲嘉南空品區</AreaName>
		<County>臺南市</County>
		<Township>善化區</Township>
		<SiteAddress>臺南市善化區益名寮60號</SiteAddress>
		<TWD97Lon>120.2971420000</TWD97Lon>
		<TWD97Lat>23.1150970000</TWD97Lat>
		<SiteType>一般站</SiteType>
		<SiteId>44</SiteId>
	</Data>
	<Data>
		<SiteName>安南</SiteName>
		<SiteEngName>Annan</SiteEngName>
		<AreaName>雲嘉南空品區</AreaName>
		<County>臺南市</County>
		<Township>安南區</Township>
		<SiteAddress>臺南市安南區安和路三段193號</SiteAddress>
		<TWD97Lon>120.2175000000</TWD97Lon>
		<TWD97Lat>23.0481970000</TWD97Lat>
		<SiteType>一般站</SiteType>
		<SiteId>45</SiteId>
	</Data>
	<Data>
		<SiteName>臺南</SiteName>
		<SiteEngName>Tainan</SiteEngName>
		<AreaName>雲嘉南空品區</AreaName>
		<County>臺南市</County>
		<Township>中西區</Township>
		<SiteAddress>臺南市中西區南寧街45號</SiteAddress>
		<TWD97Lon>120.2026170000</TWD97Lon>
		<TWD97Lat>22.9845810000</TWD97Lat>
		<SiteType>一般站</SiteType>
		<SiteId>46</SiteId>
	</Data>
	<Data>
		<SiteName>美濃</SiteName>
		<SiteEngName>Meinong</SiteEngName>
		<AreaName>高屏空品區</AreaName>
		<County>高雄市</County>
		<Township>美濃區</Township>
		<SiteAddress>高雄市美濃區中壇里忠孝路19號</SiteAddress>
		<TWD97Lon>120.5305420000</TWD97Lon>
		<TWD97Lat>22.8835830000</TWD97Lat>
		<SiteType>一般站</SiteType>
		<SiteId>47</SiteId>
	</Data>
	<Data>
		<SiteName>橋頭</SiteName>
		<SiteEngName>Qiaotou</SiteEngName>
		<AreaName>高屏空品區</AreaName>
		<County>高雄市</County>
		<Township>橋頭區</Township>
		<SiteAddress>高雄市橋頭區隆豐北路1號</SiteAddress>
		<TWD97Lon>120.3056890000</TWD97Lon>
		<TWD97Lat>22.7575060000</TWD97Lat>
		<SiteType>背景站</SiteType>
		<SiteId>48</SiteId>
	</Data>
	<Data>
		<SiteName>仁武</SiteName>
		<SiteEngName>Renwu</SiteEngName>
		<AreaName>高屏空品區</AreaName>
		<County>高雄市</County>
		<Township>仁武區</Township>
		<SiteAddress>高雄市仁武區八卦里永仁街555號</SiteAddress>
		<TWD97Lon>120.3326310000</TWD97Lon>
		<TWD97Lat>22.6890560000</TWD97Lat>
		<SiteType>一般站</SiteType>
		<SiteId>49</SiteId>
	</Data>
	<Data>
		<SiteName>鳳山</SiteName>
		<SiteEngName>Fengshan</SiteEngName>
		<AreaName>高屏空品區</AreaName>
		<County>高雄市</County>
		<Township>鳳山區</Township>
		<SiteAddress>高雄市鳳山區曹公路6號</SiteAddress>
		<TWD97Lon>120.3580830000</TWD97Lon>
		<TWD97Lat>22.6273920000</TWD97Lat>
		<SiteType>交通站</SiteType>
		<SiteId>50</SiteId>
	</Data>
	<Data>
		<SiteName>大寮</SiteName>
		<SiteEngName>Daliao</SiteEngName>
		<AreaName>高屏空品區</AreaName>
		<County>高雄市</County>
		<Township>大寮區</Township>
		<SiteAddress>高雄市大寮區潮寮路61號</SiteAddress>
		<TWD97Lon>120.4253110000</TWD97Lon>
		<TWD97Lat>22.5641361100</TWD97Lat>
		<SiteType>一般站</SiteType>
		<SiteId>51</SiteId>
	</Data>
	<Data>
		<SiteName>林園</SiteName>
		<SiteEngName>Linyuan</SiteEngName>
		<AreaName>高屏空品區</AreaName>
		<County>高雄市</County>
		<Township>林園區</Township>
		<SiteAddress>高雄市林園區北汕路58巷2號</SiteAddress>
		<TWD97Lon>120.4117500000</TWD97Lon>
		<TWD97Lat>22.4795000000</TWD97Lat>
		<SiteType>一般站</SiteType>
		<SiteId>52</SiteId>
	</Data>
	<Data>
		<SiteName>楠梓</SiteName>
		<SiteEngName>Nanzi</SiteEngName>
		<AreaName>高屏空品區</AreaName>
		<County>高雄市</County>
		<Township>楠梓區</Township>
		<SiteAddress>高雄市楠梓區楠梓路262號</SiteAddress>
		<TWD97Lon>120.3282890000</TWD97Lon>
		<TWD97Lat>22.7336670000</TWD97Lat>
		<SiteType>一般站</SiteType>
		<SiteId>53</SiteId>
	</Data>
	<Data>
		<SiteName>左營</SiteName>
		<SiteEngName>Zuoying</SiteEngName>
		<AreaName>高屏空品區</AreaName>
		<County>高雄市</County>
		<Township>左營區</Township>
		<SiteAddress>高雄市左營區翠華路687號</SiteAddress>
		<TWD97Lon>120.2929170000</TWD97Lon>
		<TWD97Lat>22.6748610000</TWD97Lat>
		<SiteType>一般站</SiteType>
		<SiteId>54</SiteId>
	</Data>
	<Data>
		<SiteName>前金</SiteName>
		<SiteEngName>Qianjin</SiteEngName>
		<AreaName>高屏空品區</AreaName>
		<County>高雄市</County>
		<Township>前金區</Township>
		<SiteAddress>高雄市前金區河南二路196號</SiteAddress>
		<TWD97Lon>120.2880860000</TWD97Lon>
		<TWD97Lat>22.6325670000</TWD97Lat>
		<SiteType>一般站</SiteType>
		<SiteId>56</SiteId>
	</Data>
	<Data>
		<SiteName>前鎮</SiteName>
		<SiteEngName>Qianzhen</SiteEngName>
		<AreaName>高屏空品區</AreaName>
		<County>高雄市</County>
		<Township>前鎮區</Township>
		<SiteAddress>高雄市前鎮區中山三路43號</SiteAddress>
		<TWD97Lon>120.3075640000</TWD97Lon>
		<TWD97Lat>22.6053860000</TWD97Lat>
		<SiteType>工業站</SiteType>
		<SiteId>57</SiteId>
	</Data>
	<Data>
		<SiteName>小港</SiteName>
		<SiteEngName>Xiaogang</SiteEngName>
		<AreaName>高屏空品區</AreaName>
		<County>高雄市</County>
		<Township>小港區</Township>
		<SiteAddress>高雄市小港區平和南路185號</SiteAddress>
		<TWD97Lon>120.3377360000</TWD97Lon>
		<TWD97Lat>22.5658330000</TWD97Lat>
		<SiteType>一般站</SiteType>
		<SiteId>58</SiteId>
	</Data>
	<Data>
		<SiteName>屏東</SiteName>
		<SiteEngName>Pingtung</SiteEngName>
		<AreaName>高屏空品區</AreaName>
		<County>屏東縣</County>
		<Township>屏東市</Township>
		<SiteAddress>屏東市蘇州街75號</SiteAddress>
		<TWD97Lon>120.4880330000</TWD97Lon>
		<TWD97Lat>22.6730810000</TWD97Lat>
		<SiteType>一般站</SiteType>
		<SiteId>59</SiteId>
	</Data>
	<Data>
		<SiteName>潮州</SiteName>
		<SiteEngName>Chaozhou</SiteEngName>
		<AreaName>高屏空品區</AreaName>
		<County>屏東縣</County>
		<Township>潮州鎮</Township>
		<SiteAddress>屏東縣潮州鎮九塊里復興路66號</SiteAddress>
		<TWD97Lon>120.5611750000</TWD97Lon>
		<TWD97Lat>22.5231080000</TWD97Lat>
		<SiteType>一般站</SiteType>
		<SiteId>60</SiteId>
	</Data>
	<Data>
		<SiteName>恆春</SiteName>
		<SiteEngName>Hengchun</SiteEngName>
		<AreaName>高屏空品區</AreaName>
		<County>屏東縣</County>
		<Township>恆春鎮</Township>
		<SiteAddress>屏東縣恆春鎮公園路44號</SiteAddress>
		<TWD97Lon>120.7889280000</TWD97Lon>
		<TWD97Lat>21.9580690000</TWD97Lat>
		<SiteType>一般站</SiteType>
		<SiteId>61</SiteId>
	</Data>
	<Data>
		<SiteName>臺東</SiteName>
		<SiteEngName>Taitung</SiteEngName>
		<AreaName>花東空品區</AreaName>
		<County>臺東縣</County>
		<Township>台東市</Township>
		<SiteAddress>臺東市中山路276號</SiteAddress>
		<TWD97Lon>121.1504500000</TWD97Lon>
		<TWD97Lat>22.7553580000</TWD97Lat>
		<SiteType>一般站</SiteType>
		<SiteId>62</SiteId>
	</Data>
	<Data>
		<SiteName>花蓮</SiteName>
		<SiteEngName>Hualien</SiteEngName>
		<AreaName>花東空品區</AreaName>
		<County>花蓮縣</County>
		<Township>花蓮市</Township>
		<SiteAddress>花蓮市中正路210號</SiteAddress>
		<TWD97Lon>121.5997690000</TWD97Lon>
		<TWD97Lat>23.9713060000</TWD97Lat>
		<SiteType>一般站</SiteType>
		<SiteId>63</SiteId>
	</Data>
	<Data>
		<SiteName>陽明</SiteName>
		<SiteEngName>Yangming</SiteEngName>
		<AreaName>北部空品區</AreaName>
		<County>臺北市</County>
		<Township>北投區</Township>
		<SiteAddress>臺北市北投區竹子湖路111號</SiteAddress>
		<TWD97Lon>121.5295830000</TWD97Lon>
		<TWD97Lat>25.1827220000</TWD97Lat>
		<SiteType>公園站</SiteType>
		<SiteId>64</SiteId>
	</Data>
	<Data>
		<SiteName>宜蘭</SiteName>
		<SiteEngName>Yilan</SiteEngName>
		<AreaName>宜蘭空品區</AreaName>
		<County>宜蘭縣</County>
		<Township>宜蘭市</Township>
		<SiteAddress>宜蘭縣宜蘭市復興路二段77號</SiteAddress>
		<TWD97Lon>121.7463940000</TWD97Lon>
		<TWD97Lat>24.7479170000</TWD97Lat>
		<SiteType>一般站</SiteType>
		<SiteId>65</SiteId>
	</Data>
	<Data>
		<SiteName>冬山</SiteName>
		<SiteEngName>Dongshan</SiteEngName>
		<AreaName>宜蘭空品區</AreaName>
		<County>宜蘭縣</County>
		<Township>冬山鄉</Township>
		<SiteAddress>宜蘭縣冬山鄉南興村照安路26號</SiteAddress>
		<TWD97Lon>121.7929280000</TWD97Lon>
		<TWD97Lat>24.6322030000</TWD97Lat>
		<SiteType>一般站</SiteType>
		<SiteId>66</SiteId>
	</Data>
	<Data>
		<SiteName>三重</SiteName>
		<SiteEngName>Sanchong</SiteEngName>
		<AreaName>北部空品區</AreaName>
		<County>新北市</County>
		<Township>三重區</Township>
		<SiteAddress>新北市三重區三和路重陽路交口</SiteAddress>
		<TWD97Lon>121.4938060000</TWD97Lon>
		<TWD97Lat>25.0726110000</TWD97Lat>
		<SiteType>交通站</SiteType>
		<SiteId>67</SiteId>
	</Data>
	<Data>
		<SiteName>中壢</SiteName>
		<SiteEngName>Zhongli</SiteEngName>
		<AreaName>北部空品區</AreaName>
		<County>桃園市</County>
		<Township>中壢區</Township>
		<SiteAddress>桃園市中壢區延平路622號</SiteAddress>
		<TWD97Lon>121.2216670000</TWD97Lon>
		<TWD97Lat>24.9532780000</TWD97Lat>
		<SiteType>交通站</SiteType>
		<SiteId>68</SiteId>
	</Data>
	<Data>
		<SiteName>竹山</SiteName>
		<SiteEngName>Zhushan</SiteEngName>
		<AreaName>中部空品區</AreaName>
		<County>南投縣</County>
		<Township>竹山鎮</Township>
		<SiteAddress>南投縣竹山鎮大明路666號</SiteAddress>
		<TWD97Lon>120.6773060000</TWD97Lon>
		<TWD97Lat>23.7563890000</TWD97Lat>
		<SiteType>一般站</SiteType>
		<SiteId>69</SiteId>
	</Data>
	<Data>
		<SiteName>永和</SiteName>
		<SiteEngName>Yonghe</SiteEngName>
		<AreaName>北部空品區</AreaName>
		<County>新北市</County>
		<Township>永和區</Township>
		<SiteAddress>新北市永和區永和路光復路交口</SiteAddress>
		<TWD97Lon>121.5163060000</TWD97Lon>
		<TWD97Lat>25.0170000000</TWD97Lat>
		<SiteType>交通站</SiteType>
		<SiteId>70</SiteId>
	</Data>
	<Data>
		<SiteName>復興</SiteName>
		<SiteEngName>Fuxing</SiteEngName>
		<AreaName>高屏空品區</AreaName>
		<County>高雄市</County>
		<Township>前鎮區</Township>
		<SiteAddress>高雄市前鎮區民權二路331號</SiteAddress>
		<TWD97Lon>120.3120170000</TWD97Lon>
		<TWD97Lat>22.6087110000</TWD97Lat>
		<SiteType>交通站</SiteType>
		<SiteId>71</SiteId>
	</Data>
	<Data>
		<SiteName>埔里</SiteName>
		<SiteEngName>Puli</SiteEngName>
		<AreaName>中部空品區</AreaName>
		<County>南投縣</County>
		<Township>埔里鎮</Township>
		<SiteAddress>南投縣埔里鎮西安路一段193號</SiteAddress>
		<TWD97Lon>120.9679030000</TWD97Lon>
		<TWD97Lat>23.9688420000</TWD97Lat>
		<SiteType>其它站</SiteType>
		<SiteId>72</SiteId>
	</Data>
	<Data>
		<SiteName>馬祖</SiteName>
		<SiteEngName>Matsu</SiteEngName>
		<AreaName>其他</AreaName>
		<County>連江縣</County>
		<Township>南竿鄉</Township>
		<SiteAddress>連江縣南竿鄉介壽村13號</SiteAddress>
		<TWD97Lon>119.9498750000</TWD97Lon>
		<TWD97Lat>26.1604690000</TWD97Lat>
		<SiteType>一般站</SiteType>
		<SiteId>75</SiteId>
	</Data>
	<Data>
		<SiteName>金門</SiteName>
		<SiteEngName>Kinmen</SiteEngName>
		<AreaName>其他</AreaName>
		<County>金門縣</County>
		<Township>金城鎮</Township>
		<SiteAddress>金門縣金城鎮民權路32號</SiteAddress>
		<TWD97Lon>118.3122560000</TWD97Lon>
		<TWD97Lat>24.4321330000</TWD97Lat>
		<SiteType>一般站</SiteType>
		<SiteId>77</SiteId>
	</Data>
	<Data>
		<SiteName>馬公</SiteName>
		<SiteEngName>Magong</SiteEngName>
		<AreaName>其他</AreaName>
		<County>澎湖縣</County>
		<Township>馬公市</Township>
		<SiteAddress>澎湖縣馬公市中正路115號</SiteAddress>
		<TWD97Lon>119.5661580000</TWD97Lon>
		<TWD97Lat>23.5690310000</TWD97Lat>
		<SiteType>一般站</SiteType>
		<SiteId>78</SiteId>
	</Data>
	<Data>
		<SiteName>關山</SiteName>
		<SiteEngName>Guanshan</SiteEngName>
		<AreaName>花東空品區</AreaName>
		<County>臺東縣</County>
		<Township>關山鎮</Township>
		<SiteAddress>臺東縣關山鎮自強路66號</SiteAddress>
		<TWD97Lon>121.1619330000</TWD97Lon>
		<TWD97Lat>23.0450830000</TWD97Lat>
		<SiteType>其它站</SiteType>
		<SiteId>80</SiteId>
	</Data>
	<Data>
		<SiteName>麥寮</SiteName>
		<SiteEngName>Mailiao</SiteEngName>
		<AreaName>雲嘉南空品區</AreaName>
		<County>雲林縣</County>
		<Township>麥寮鄉</Township>
		<SiteAddress>雲林縣麥寮鄉中興路115號</SiteAddress>
		<TWD97Lon>120.2518250000</TWD97Lon>
		<TWD97Lat>23.7535060000</TWD97Lat>
		<SiteType>工業站</SiteType>
		<SiteId>83</SiteId>
	</Data>
	<Data>
		<SiteName>富貴角</SiteName>
		<SiteEngName>FugueiCape</SiteEngName>
		<AreaName>北部空品區</AreaName>
		<County>新北市</County>
		<Township>石門區</Township>
		<SiteAddress></SiteAddress>
		<TWD97Lon>121.5473800000</TWD97Lon>
		<TWD97Lat>25.2922800000</TWD97Lat>
		<SiteType>背景站</SiteType>
		<SiteId>84</SiteId>
	</Data>
	<Data>
		<SiteName>大城</SiteName>
		<SiteEngName></SiteEngName>
		<AreaName>中部空品區</AreaName>
		<County>彰化縣</County>
		<Township>大城鄉</Township>
		<SiteAddress>彰化縣大城鄉西厝路98號</SiteAddress>
		<TWD97Lon>120.2696416700</TWD97Lon>
		<TWD97Lat>23.8549305600</TWD97Lat>
		<SiteType>其它站</SiteType>
		<SiteId>85</SiteId>
	</Data>
</AQXSite>